$GNRMC,191731.40,A,4458.18062,N,09331.05604,W,1.002,,110919,,,D*7C
$GNGGA,191731.40,4458.18062,N,09331.05604,W,2,12,0.80,309.9,M,-30.7,M,,0000*75
$GNGSA,A,3,29,20,13,02,05,26,21,15,16,,,,1.29,0.80,1.02*15
$GPGSV,4,1,13,02,09,114,13,05,31,061,19,10,02,246,,13,50,089,15*7A
$GPGSV,4,3,13,26,11,285,11,29,55,195,30,30,05,047,,46,27,225,28*7F
$GPGSV,4,4,13,51,36,199,*4B
$GLGSV,2,1,08,65,18,039,,66,83,030,17,67,40,219,32,73,03,338,*61
$GLGSV,2,2,08,74,04,017,,81,79,128,32,82,45,325,10,88,29,139,11*6F
$GNRMC,191731.60,A,4458.18063,N,09331.05609,W,0.047,,110919,,,D*72
$GNGSA,A,3,88,81,66,82,67,,,,,,,,1.29,0.80,1.02*1F
$GPGSV,4,1,13,02,09,114,13,05,31,061,19,10,02,246,,13,50,089,16*79
$GPGSV,4,2,13,15,54,157,31,16,13,311,14,20,26,255,23,21,47,302,28*74
$GLGSV,2,1,08,65,18,039,,66,83,030,17,67,40,219,32,73,03,338,*61
$GNGLL,4458.18063,N,09331.05609,W,191731.60,A,D*69
$GNVTG,,T,,M,0.249,N,0.460,K,D*35
$GNGGA,191731.80,4458.18063,N,09331.05613,W,2,12,0.80,310.3,M,-30.7,M,,0000*7C
$GNGSA,A,3,29,20,13,02,05,26,21,15,16,,,,1.29,0.80,1.02*15
$GPGSV,4,1,13,02,09,114,12,05,31,061,19,10,02,246,,13,50,089,16*78
$GPGSV,4,3,13,26,11,285,15,29,55,195,30,30,05,047,,46,27,225,28*7B
$GPGSV,4,4,13,51,36,199,*4B
$GLGSV,2,1,08,65,18,039,,66,83,030,14,67,40,219,32,73,03,338,*62
$GLGSV,2,2,08,74,05,017,,81,79,128,33,82,45,325,11,88,29,139,10*6F
$GNGLL,4458.18063,N,09331.05613,W,191731.80,A,D*6C
$GNGGA,191732.00,4458.18065,N,09331.05617,W,2,12,0.80,310.3,M,-30.7,M,,0000*75
$GNGSA,A,3,29,20,13,02,05,26,21,15,16,,,,1.29,0.80,1.02*15
$GNGSA,A,3,88,81,66,82,67,,,,,,,,1.29,0.80,1.02*1F
$GPGSV,4,1,13,02,09,114,12,05,31,061,19,10,02,246,,13,50,089,16*78
$GPGSV,4,2,13,15,54,157,31,16,13,311,15,20,26,255,23,21,47,302,28*75
$GLGSV,2,1,08,65,18,039,,66,83,030,14,67,40,219,32,73,03,338,*62
$GNGLL,4458.18065,N,09331.05617,W,191732.00,A,D*65
$GNRMC,191732.20,A,4458.18069,N,09331.05618,W,0.425,,110919,,,D*7F
$GNVTG,,T,,M,0.425,N,0.787,K,D*33
$GNGGA,191732.20,4458.18069,N,09331.05618,W,2,12,0.80,310.1,M,-30.7,M,,0000*76
$GNGSA,A,3,29,20,13,02,05,26,21,15,16,,,,1.29,0.80,1.02*15
$GNGSA,A,3,88,81,66,82,67,,,,,,,,1.29,0.80,1.02*1F
$GPGSV,4,1,13,02,09,114,11,05,31,061,19,10,02,246,,13,50,089,16*7B
$GPGSV,4,2,13,15,54,157,31,16,13,311,15,20,26,255,23,21,47,302,28*75
$GPGSV,4,3,13,26,11,285,11,29,55,195,30,30,05,047,,46,27,225,28*7F
$GPGSV,4,4,13,51,36,199,*4B
$GLGSV,2,1,08,65,18,039,,66,83,030,16,67,40,219,32,73,03,338,*60
$GLGSV,2,2,08,74,05,017,,81,79,128,33,82,45,325,10,88,29,139,15*6B
$GNRMC,191732.40,A,4458.18074,N,09331.05620,W,0.653,,110919,,,D*7D
$GNGGA,191732.40,4458.18074,N,09331.05620,W,2,12,0.80,310.1,M,-30.7,M,,0000*77
$GNGSA,A,3,88,81,66,82,67,,,,,,,,1.29,0.80,1.02*1F
$GPGSV,4,2,13,15,54,157,31,16,13,311,15,20,26,255,23,21,47,302,28*75
$GPGSV,4,4,13,51,36,199,*4B
$GLGSV,2,1,08,65,18,039,,66,83,030,16,67,40,219,33,73,03,338,*61
$GNGLL,4458.18074,N,09331.05620,W,191732.40,A,D*65
$GNRMC,191732.60,A,4458.18078,N,09331.05617,W,0.579,,110919,,,D*7C
$GNVTG,,T,,M,0.579,N,1.073,K,D*36
$GNGSA,A,3,29,20,13,02,05,26,21,15,16,,,,1.29,0.80,1.02*15
$GNGSA,A,3,88,81,66,82,67,,,,,,,,1.29,0.80,1.02*1F
$GPGSV,4,1,13,02,09,114,11,05,31,061,19,10,02,246,,13,50,089,16*7B
$GPGSV,4,2,13,15,54,157,31,16,13,311,15,20,26,255,23,21,47,302,28*75
$GLGSV,2,1,08,65,18,039,,66,83,030,17,67,40,219,33,73,03,338,*60
$GLGSV,2,2,08,74,05,017,,81,79,128,32,82,45,325,09,88,29,139,10*67
$GNGLL,4458.18078,N,09331.05617,W,191732.60,A,D*6F
$GNGSA,A,3,29,20,13,02,05,26,21,15,16,,,,1.29,0.80,1.02*15
$GNGSA,A,3,88,81,66,82,67,,,,,,,,1.29,0.80,1.02*1F
$GPGSV,4,1,13,02,09,114,11,05,31,061,20,10,02,246,,13,50,089,15*72
$GPGSV,4,2,13,15,54,157,31,16,13,311,16,20,26,255,23,21,47,302,28*76
$GPGSV,4,3,13,26,11,285,15,29,55,195,30,30,05,047,,46,27,225,28*7B
$GPGSV,4,4,13,51,36,199,*4B
$GLGSV,2,1,08,65,18,039,,66,83,030,17,67,40,219,33,73,03,338,*60
$GNRMC,191733.00,A,4458.18082,N,09331.05620,W,0.524,,110919,,,D*72
$GNVTG,,T,,M,0.524,N,0.970,K,D*35
$GNGSA,A,3,88,81,66,82,67,,,,,,,,1.29,0.80,1.02*1F
$GPGSV,4,1,13,02,09,114,10,05,31,061,19,10,02,246,,13,50,089,15*79
$GPGSV,4,2,13,15,54,157,31,16,13,311,16,20,26,255,23,21,47,302,28*76
$GPGSV,4,3,13,26,11,285,08,29,55,195,30,30,05,047,,46,27,225,28*77
$GLGSV,2,1,08,65,18,039,,66,83,030,19,67,40,219,33,73,03,338,*6E
$GLGSV,2,2,08,74,05,017,,81,79,128,32,82,45,325,10,88,29,139,13*6C
$GNGLL,4458.18082,N,09331.05620,W,191733.00,A,D*69
$GNRMC,191733.20,A,4458.18082,N,09331.05619,W,0.565,,110919,,,D*7F
$GNVTG,,T,,M,0.565,N,1.047,K,D*3C
$GNGGA,191733.20,4458.18082,N,09331.05619,W,2,12,0.80,310.4,M,-30.7,M,,0000*76
$GNGSA,A,3,29,20,13,02,05,26,21,15,16,,,,1.29,0.80,1.02*15
$GNGSA,A,3,88,81,66,82,67,,,,,,,,1.29,0.80,1.02*1F
$GPGSV,4,1,13,02,09,114,10,05,31,061,19,10,02,246,,13,50,089,14*78
$GPGSV,4,2,13,15,54,157,31,16,13,311,16,20,26,255,23,21,47,302,28*76
$GPGSV,4,3,13,26,11,285,08,29,55,195,30,30,05,047,,46,27,225,28*77
$GPGSV,4,4,13,51,36,199,*4B
$GLGSV,2,2,08,74,05,017,,81,79,129,32,82,45,325,10,88,29,139,13*6D
$GNGLL,4458.18082,N,09331.05619,W,191733.20,A,D*61
$GNGSA,A,3,88,81,66,82,67,,,,,,,,1.29,0.80,1.02*1F
$GPGSV,4,3,13,26,11,285,15,29,55,195,30,30,05,047,,46,27,225,28*7B
$GPGSV,4,4,13,51,36,199,*4B
$GLGSV,2,1,08,65,18,039,,66,83,030,11,67,40,219,33,73,03,338,*66
$GNGLL,4458.18084,N,09331.05616,W,191733.40,A,D*6E
$GNVTG,,T,,M,0.027,N,0.050,K,D*38
$GNGSA,A,3,88,81,66,82,67,,,,,,,,1.29,0.80,1.02*1F
$GPGSV,4,2,13,15,54,157,31,16,13,311,15,20,26,255,23,21,47,302,28*75
$GLGSV,2,1,08,65,18,039,,66,83,030,12,67,40,219,33,73,03,338,*65
$GLGSV,2,2,08,74,05,017,,81,79,129,32,82,45,325,10,88,29,139,15*6B
$GNGLL,4458.18085,N,09331.05616,W,191733.60,A,D*6D
$GNGGA,191733.80,4458.18082,N,09331.05617,W,2,12,0.86,310.4,M,-30.7,M,,0000*74
$GNGSA,A,3,29,20,13,02,05,26,21,15,16,,,,1.55,0.86,1.28*10
$GNGSA,A,3,88,81,66,82,67,,,,,,,,1.55,0.86,1.28*1A
$GPGSV,4,2,13,15,54,157,31,16,13,311,16,20,26,255,23,21,47,302,28*76
$GPGSV,4,3,13,26,11,285,12,29,55,195,30,30,05,047,,46,27,225,28*7C
$GPGSV,4,4,13,51,36,199,*4B
$GLGSV,2,2,08,74,05,017,,81,79,129,32,82,45,325,08,88,29,139,13*64
$GNGLL,4458.18082,N,09331.05617,W,191733.80,A,D*65
